[   
    {"lat":6.240712396646641,  "lng":-109.41423654556274, "yaw":0.1, "name":"SCI_FIND_COMMON_FIRST_TAGS"},
    {"lat":6.240631074058142,  "lng":-109.41447526216507, "yaw":0.1, "name":"SCI_FIND_COMMON_SECOND_TAGS"},
    {"lat":6.240839046554431,  "lng":-109.41486686468123, "yaw":0.1, "name":"SCI_FIND_COMMONb"},
    {"lat":6.2410070242796225, "lng":-109.41527187824248, "yaw":0.1, "name":"SCI_FIND_COMMONa", "start_delay":691200},
    {"lat":6.24118033457456,   "lng":-109.4156876206398,  "yaw":0.1, "name":"ID_15_SPECIES", "start_delay":691200},
    {"lat":6.241412303648844,  "lng":-109.41607117652893, "yaw":0.1, "name":"ID_GORDY_TREE_01"},
    {"lat":6.24174292605993,   "lng":-109.41636890172958, "yaw":0.1, "name":"ID_GORDY_TREE_02"},
    {"lat":6.242153537473547,  "lng":-109.4165351986885,  "yaw":0.1, "name":"ID_GORDY_TREE_03"},
    {"lat":6.242502823552564,  "lng":-109.41681146621704, "yaw":0.1, "name":"ID_GORDY_TREE_YOUNG", "start_delay":90000},
    {"lat":6.24278011920516,   "lng":-109.41716551780699, "yaw":0.1, "name":"ID_GORDY_TREE_DEAD"},
    {"lat":6.242849443095374,  "lng":-109.41760271787643, "yaw":0.1, "name":"ID_BRISTLETONGUE_VARIANT"},
    {"lat":6.242929432188054,  "lng":-109.41803991794586, "yaw":0.1, "name":"ID_THIRD_CNIDERIA"},
    {"lat":6.243036084292639,  "lng":-109.41847443580626, "yaw":0.1, "name":"ID_STARSPORE_OPEN_CLOSED_01"},
    {"lat":6.243137403771881,  "lng":-109.41890895366669, "yaw":0.1, "name":"ID_STARSPORE_OPEN_CLOSED_02"},
    {"lat":6.243238723231505,  "lng":-109.4193434715271,  "yaw":0.1, "name":"ID_BIOLUMINESCENCE_DAY"},
    {"lat":6.243377370881352,  "lng":-109.41977262496948, "yaw":0.1, "name":"ID_BIOLUMINESCENCE_NIGHT_01"},
    {"lat":6.243516018494496,  "lng":-109.42020177841187, "yaw":0.1, "name":"ID_BIOLUMINESCENCE_NIGHT_02"},
    {"lat":6.243622670479618,  "lng":-109.42063629627228, "yaw":0.1, "name":"ID_SAIL_FLYER_01"},
    {"lat":6.243798646207606,  "lng":-109.42104935646057, "yaw":0.1, "name":"ID_SAIL_FLYER_02"},
    {"lat":6.243867969963002,  "lng":-109.42148923873901, "yaw":0.1, "name":"ID_SAIL_FLYER_03"},
    {"lat":6.243763984326472,  "lng":-109.42165151238441, "yaw":0.1, "name":"OUTSIDE_AUDIO_MYSTERY07_TRIGGER"},
    {"lat":6.24367599646405,   "lng":-109.42174136638641, "yaw":0.1, "name":"INSIDE_AUDIO_MYSTERY07_TRIGGER"},
    {"lat":6.243409366487644,  "lng":-109.42193448543549, "yaw":0.1, "name":"TOWARD_AUDIO_MYSTERY07_ZONE"},
    {"lat":6.243094742940909,  "lng":-109.42212224006653, "yaw":0.1, "name":"OUTSIDE_AUDIO_MYSTERY07_ZONE"},
    {"lat":6.2429614278217125, "lng":-109.42218124866484, "yaw":0.1, "name":"INSIDE_AUDIO_MYSTERY07_ZONE"},
    {"lat":6.242924099582254,  "lng":-109.4222992658615,  "yaw":0.1, "name":"AT_AUDIO_MYSTERY07"},
    {"lat":6.243302714459088,  "lng":-109.42226707935333, "yaw":0.1, "name":"THE_END"}
]
